{
  "type": "FeatureCollection",
  "name": "深圳户外钓鱼场推荐",
  "icon": "🎣",
  "features": [
    {
      "type": "Feature",
      "geometry": {
        "type": "Point",
        "coordinates": [
          113.973793,
          22.621688
        ]
      },
      "properties": {
        "name": "深圳户外钓鱼场推荐",
        "address": "深圳市南山区西丽街道大磡村福丽农场",
        "description": "位于西丽街道大磡村福丽农场内，环境优美，有综合塘、鲤鱼塘和大物塘。费用按鱼塘不同，有租竿服务。傍晚适合散步。"
      }
    },
    {
      "type": "Feature",
      "geometry": {
        "type": "Point",
        "coordinates": [
          114.246884,
          22.720889
        ]
      },
      "properties": {
        "name": "深圳户外钓鱼场推荐",
        "address": "深圳市龙岗区笔架山公园垂钓中心",
        "description": "山林茂密，鱼种丰富，有白鲫、罗非鱼、鲳鱼和鲢鱼。最低40元钓一整天，有茶苑和遮阴棚。"
      }
    },
    {
      "type": "Feature",
      "geometry": {
        "type": "Point",
        "coordinates": [
          114.069417,
          22.634805
        ]
      },
      "properties": {
        "name": "深圳户外钓鱼场推荐",
        "address": "深圳市龙岗区坂田集团俱乐部垂钓中心",
        "description": "市区钓场，自驾便利，设有散钓与竞技区。最低约50元，可全天钓鱼。设有儿童游乐区。需自备鱼竿和饵料。"
      }
    },
    {
      "type": "Feature",
      "geometry": {
        "type": "Point",
        "coordinates": [
          114.117161,
          22.553189
        ]
      },
      "properties": {
        "name": "深圳户外钓鱼场推荐",
        "address": "深圳市罗湖区人民公园钓鱼区",
        "description": "虽小但品质不错，主要鱼种为罗非鱼和鲫鱼，收费40元/人，不提供鱼竿饵料。提供凳子和雨伞遮阴。可选择带走钓获付费。"
      }
    },
    {
      "type": "Feature",
      "geometry": {
        "type": "Point",
        "coordinates": [
          114.055198,
          22.520922
        ]
      },
      "properties": {
        "name": "深圳户外钓鱼场推荐",
        "address": "深圳市福田区东湖公园钓鱼区",
        "description": "环境优美，技术为主，钓鱼费用40元可钓一整天，饵料需自带。罗非鱼和鲫鱼价格合理，钓获可带走。"
      }
    },
    {
      "type": "Feature",
      "geometry": {
        "type": "Point",
        "coordinates": [
          114.236185,
          22.54583
        ]
      },
      "properties": {
        "name": "深圳户外钓鱼场推荐",
        "address": "深圳市南山区海景路带状公园",
        "description": "靠近海景，分垂钓区和非垂钓区，可享受天然海钓体验。可钓海蟹、多宝鱼、海鲳鱼等。记得带好钓具并做好防晒。"
      }
    }
  ]
}