{
  "type": "FeatureCollection",
  "name": "å•†åœºå…è´¹åœè½¦",
  "icon": "ğŸ…¿ï¸",
  "features": [
    {
      "type": "Feature",
      "geometry": {
        "type": "Point",
        "coordinates": [
          114.060273,
          22.569759
        ]
      },
      "properties": {
        "name": "å•†åœºå…è´¹åœè½¦",
        "address": "æ·±åœ³ç¦ç”°å“æ‚¦æ±‡è´­ç‰©ä¸­å¿ƒ",
        "description": "ä»»æ„æ¶ˆè´¹å¹¶ç§¯åˆ†å¯è·èµ 1å¼ 2håœè½¦ä¼˜æƒ åˆ¸"
      }
    },
    {
      "type": "Feature",
      "geometry": {
        "type": "Point",
        "coordinates": [
          114.064112,
          22.532145
        ]
      },
      "properties": {
        "name": "å•†åœºå…è´¹åœè½¦",
        "address": "æ·±åœ³ç¦ç”°å“æ‚¦INTOWN",
        "description": "æ–°æ³¨å†Œä¼šå‘˜ä»»æ„æ¶ˆè´¹å¹¶ç§¯åˆ†è‡ªåŠ¨æ´¾å‘åœè½¦åˆ¸ï¼Œå…è´¹åœè½¦2å°æ—¶ã€‚"
      }
    },
    {
      "type": "Feature",
      "geometry": {
        "type": "Point",
        "coordinates": [
          114.070306,
          22.557091
        ]
      },
      "properties": {
        "name": "å•†åœºå…è´¹åœè½¦",
        "address": "æ·±åœ³ç¦ç”°æ·±ä¸šä¸ŠåŸ",
        "description": "æ–°æ³¨å†Œæˆä¸ºé“¶å¡ä¼šå‘˜å…è´¹åœè½¦1hï¼›éä¼šå‘˜15åˆ†é’Ÿå†…å…è´¹åœè½¦"
      }
    },
    {
      "type": "Feature",
      "geometry": {
        "type": "Point",
        "coordinates": [
          114.083655,
          22.542835
        ]
      },
      "properties": {
        "name": "å•†åœºå…è´¹åœè½¦",
        "address": "æ·±åœ³ç¦ç”°ä¸­èˆªåŸå›å°š",
        "description": "æ–°æ³¨å†Œä¼šå‘˜å½“æ—¥æ¶ˆè´¹æ»¡100å…ƒå¹¶ç§¯åˆ†å…è´¹åœè½¦2h"
      }
    },
    {
      "type": "Feature",
      "geometry": {
        "type": "Point",
        "coordinates": [
          114.027419,
          22.526852
        ]
      },
      "properties": {
        "name": "å•†åœºå…è´¹åœè½¦",
        "address": "æ·±åœ³ç¦ç”°kk one",
        "description": "æˆä¸ºä¼šå‘˜æ¯æœˆé¦–å•æ¶ˆè´¹èµ 6håœè½¦åˆ¸ï¼ˆ3å¼ *2å°æ—¶ï¼‰ï¼›å½“æ—¥å•ç¬”æ¶ˆè´¹æ»¡200å…ƒå¹¶ç§¯åˆ†èµ 2hå…è´¹åœè½¦åˆ¸ã€‚"
      }
    },
    {
      "type": "Feature",
      "geometry": {
        "type": "Point",
        "coordinates": [
          114.019927,
          22.536245
        ]
      },
      "properties": {
        "name": "å•†åœºå…è´¹åœè½¦",
        "address": "æ·±åœ³ç¦ç”°ä¸œæµ·ç¼¤çº·å¤©åœ°",
        "description": "å…¨åœºå•ç¬”æ¶ˆè´¹æ»¡50å…ƒå¯å…3håœè½¦è´¹ï¼›å‡­è‹±çš‡ç”µå½±åŸ(ä¸œæµ·åº—)ç¥¨æ ¹ï¼Œå…3håœè½¦è´¹ï¼Œå¯å åŠ æ¶ˆè´¹å…åœä¼˜æƒ ä¸”æœ€å¤šå¯å…5hã€‚"
      }
    },
    {
      "type": "Feature",
      "geometry": {
        "type": "Point",
        "coordinates": [
          114.083474,
          22.541437
        ]
      },
      "properties": {
        "name": "å•†åœºå…è´¹åœè½¦",
        "address": "æ·±åœ³ç¦ç”°ä¸–çºªæ±‡å¹¿åœº",
        "description": "å½“æ—¥ç´¯è®¡æ¶ˆè´¹188å…ƒå‡çº§ä¸ºè´µå®¾å¡ï¼Œæ¯æ—¥æ¯è½¦äº«3hå…è´¹åœè½¦ã€‚"
      }
    },
    {
      "type": "Feature",
      "geometry": {
        "type": "Point",
        "coordinates": [
          114.028855,
          22.527239
        ]
      },
      "properties": {
        "name": "å•†åœºå…è´¹åœè½¦",
        "address": "æ·±åœ³ç¦ç”°ä¸­æ´²æ¹¾",
        "description": "ä¼šå‘˜ä»»æ„æ¶ˆè´¹å¹¶ç§¯åˆ†èµ 2håœè½¦åˆ¸ï¼›æ™®å¡ä¼šå‘˜æ¯æœˆ2hï¼ˆ1å¼ *2å°æ—¶ï¼‰ã€‚"
      }
    },
    {
      "type": "Feature",
      "geometry": {
        "type": "Point",
        "coordinates": [
          114.012133,
          22.544656
        ]
      },
      "properties": {
        "name": "å•†åœºå…è´¹åœè½¦",
        "address": "æ·±åœ³æ·±åœ³å°åŠ›ä¸­å¿ƒ",
        "description": "å±±å§†ä¼šå‘˜åº—å•ç¬”æ¶ˆè´¹æ»¡50å…ƒï¼Œå‡­å½“æ—¥å¯¹åº”æ¶ˆè´¹å°ç¥¨å¯å…é¦–2å°æ—¶åœè½¦ã€å¾®ä¿¡å°ç¨‹åºè‡ªåŠ©æ‰«ç å‡å…ã€‘ï¼›æ–°æ³¨å†Œæ™®å¡ä¼šå‘˜å½“æ—¥ç´¯è®¡æ¶ˆè´¹æ»¡300å…ƒå¹¶é›†æ˜Ÿè´å¯é¢†1h(10å…ƒ)åœè½¦æŠµç”¨åˆ¸ã€‚"
      }
    },
    {
      "type": "Feature",
      "geometry": {
        "type": "Point",
        "coordinates": [
          114.109667,
          22.564189
        ]
      },
      "properties": {
        "name": "å•†åœºå…è´¹åœè½¦",
        "address": "æ·±åœ³ç½—æ¹–å®èƒ½ç¯çƒæ±‡",
        "description": "æ–°æ³¨å†Œå°±æ˜¯é“¶å¡ä¼šå‘˜ï¼Œå½“å¤©é¦–åœäº«3å°æ—¶ä»¥å†…å…è´¹æ—¶é•¿ï¼Œè¿˜å¯å åŠ ç§¯åˆ†ä¼˜æƒ 100åˆ†=5å…ƒåœè½¦è´¹ã€‚"
      }
    },
    {
      "type": "Feature",
      "geometry": {
        "type": "Point",
        "coordinates": [
          114.134716,
          22.57744
        ]
      },
      "properties": {
        "name": "å•†åœºå…è´¹åœè½¦",
        "address": "æ·±åœ³ç½—æ¹–å¤©æ²³åŸ",
        "description": "æ–°æ³¨å†Œæˆä¸ºä¼šå‘˜teemå¡ï¼Œæ¯æ—¥é¦–æ¬¡å…¥åœºäº«2hå…è´¹åœè½¦ï¼›å•ç¬”æ¶ˆè´¹æ»¡99å…ƒå¹¶ç§¯åˆ†ï¼Œèµ 1håœè½¦åˆ¸ï¼Œå¯ä¸å…¶å®ƒä¼˜æƒ å åŠ ã€‚"
      }
    },
    {
      "type": "Feature",
      "geometry": {
        "type": "Point",
        "coordinates": [
          113.988648,
          22.543084
        ]
      },
      "properties": {
        "name": "å•†åœºå…è´¹åœè½¦",
        "address": "æ·±åœ³å—å±±æ¬¢ä¹æ—¶å…‰",
        "description": "æ–°æ³¨å†Œæˆä¸ºç§¯åˆ†å¡ä¼šå‘˜ï¼Œæ¯æ—¥å¯äº«å—2hå…è´¹åœè½¦"
      }
    },
    {
      "type": "Feature",
      "geometry": {
        "type": "Point",
        "coordinates": [
          113.970008,
          22.524076
        ]
      },
      "properties": {
        "name": "å•†åœºå…è´¹åœè½¦",
        "address": "æ·±åœ³æ·±åœ³æ¹¾ç¿å°RAIL IN",
        "description": "æ–°æ³¨å†Œæˆä¸ºä¼šå‘˜è¥ä¸šæ—¶é—´å†…å…è´¹åœè½¦3å°æ—¶ï¼›ä»»æ„æ¶ˆè´¹å¹¶ç§¯åˆ†åŠ èµ å…è´¹åœè½¦2å°æ—¶ã€‚"
      }
    },
    {
      "type": "Feature",
      "geometry": {
        "type": "Point",
        "coordinates": [
          113.998195,
          22.590733
        ]
      },
      "properties": {
        "name": "å•†åœºå…è´¹åœè½¦",
        "address": "æ·±åœ³è¥¿ä¸½å®èƒ½ç¯çƒæ±‡",
        "description": "æ–°æ³¨å†Œå°±æ˜¯é“¶å¡ä¼šå‘˜ï¼Œå½“å¤©é¦–åœäº«3å°æ—¶ä»¥å†…å…è´¹æ—¶é•¿ï¼Œè¿˜å¯å åŠ ç§¯åˆ†ä¼˜æƒ 100åˆ†=5å…ƒåœè½¦è´¹ã€‚"
      }
    },
    {
      "type": "Feature",
      "geometry": {
        "type": "Point",
        "coordinates": [
          113.939044,
          22.499582
        ]
      },
      "properties": {
        "name": "å•†åœºå…è´¹åœè½¦",
        "address": "æ·±åœ³å®èƒ½allcityå—å±±åº—",
        "description": "æ–°æ³¨å†Œå°±æ˜¯é“¶å¡ä¼šå‘˜ï¼Œå½“å¤©é¦–åœäº«3å°æ—¶ä»¥å†…å…è´¹æ—¶é•¿ï¼Œè¿˜å¯å åŠ ç§¯åˆ†ä¼˜æƒ 100åˆ†=5å…ƒåœè½¦è´¹ã€‚"
      }
    },
    {
      "type": "Feature",
      "geometry": {
        "type": "Point",
        "coordinates": [
          113.890349,
          22.503453
        ]
      },
      "properties": {
        "name": "å•†åœºå…è´¹åœè½¦",
        "address": "æ·±åœ³å‰æµ·å°é‡Œ",
        "description": "æ–°æ³¨å†Œå°±æ˜¯æ™®å¡ä¼šå‘˜ï¼Œå½“æ—¥ç´¯è®¡æ¶ˆè´¹æ»¡50å…ƒå¹¶ç§¯åˆ†ï¼Œå‡­å½“æ—¥å°ç¥¨å¯å…é¦–2håœè½¦;æ¯100ç§¯åˆ†æŠµæ‰£5å…ƒåœè½¦è´¹ã€‚"
      }
    },
    {
      "type": "Feature",
      "geometry": {
        "type": "Point",
        "coordinates": [
          113.969345,
          22.530691
        ]
      },
      "properties": {
        "name": "å•†åœºå…è´¹åœè½¦",
        "address": "æ·±åœ³å—å±±äº¬åŸºç™¾çº³å¹¿åœº",
        "description": "é¦–å°æ—¶å…è´¹ï¼›æ–°å…¥ä¼šä¼šå‘˜è·èµ 50ç§¯åˆ†+2å°æ—¶åœè½¦åˆ¸ï¼Œé¦–ç¬”æ¶ˆè´¹å†èµ 100ç§¯åˆ†ï¼Œ50ç§¯åˆ†å¯æŠµ5å…ƒåœè½¦è´¹(1å°æ—¶)ã€‚"
      }
    },
    {
      "type": "Feature",
      "geometry": {
        "type": "Point",
        "coordinates": [
          113.920356,
          22.535071
        ]
      },
      "properties": {
        "name": "å•†åœºå…è´¹åœè½¦",
        "address": "æ·±åœ³å—å±±æ¬¢ä¹é¢‚",
        "description": "é¦–å°æ—¶å…è´¹ï¼›ä¼šå‘˜å½“æ—¥ç´¯è®¡æ¶ˆè´¹æ»¡500å…ƒå¹¶å®Œæˆç§¯åˆ†ï¼Œé€2å°æ—¶åœè½¦ä¼˜æƒ åˆ¸"
      }
    },
    {
      "type": "Feature",
      "geometry": {
        "type": "Point",
        "coordinates": [
          113.887188,
          22.544056
        ]
      },
      "properties": {
        "name": "å•†åœºå…è´¹åœè½¦",
        "address": "æ·±åœ³æ·±åœ³æ¬¢ä¹æ¸¯æ¹¾",
        "description": "æ–°æ³¨å†Œæˆä¸ºç§¯åˆ†å¡ä¼šå‘˜å·¥ä½œæ—¥é¦–æ¬¡åœè½¦å…è´¹2å°æ—¶ï¼Œéå·¥ä½œæ—¥å½“æ—¥ç´¯è®¡æ¶ˆè´¹æ»¡200å…ƒå¹¶å®Œæˆç§¯åˆ†å¯äº«å—å…è´¹åœè½¦2å°æ—¶ã€‚"
      }
    },
    {
      "type": "Feature",
      "geometry": {
        "type": "Point",
        "coordinates": [
          113.906045,
          22.559729
        ]
      },
      "properties": {
        "name": "å•†åœºå…è´¹åœè½¦",
        "address": "æ·±åœ³æµ·é›…ç¼¤çº·åŸ",
        "description": "æ³¨å†Œæˆä¸ºä¼šå‘˜å°±äº«2å°æ—¶å…è´¹åœè½¦"
      }
    },
    {
      "type": "Feature",
      "geometry": {
        "type": "Point",
        "coordinates": [
          114.059265,
          22.604135
        ]
      },
      "properties": {
        "name": "å•†åœºå…è´¹åœè½¦",
        "address": "æ·±åœ³é¾™å²—æ˜Ÿæ²³world cocopark",
        "description": "æ–°æ³¨å†Œæˆä¸ºVå¡ä¼šå‘˜æ¯æ—¥å…åœ1h"
      }
    },
    {
      "type": "Feature",
      "geometry": {
        "type": "Point",
        "coordinates": [
          114.224709,
          22.729812
        ]
      },
      "properties": {
        "name": "å•†åœºå…è´¹åœè½¦",
        "address": "æ·±åœ³æ·±åœ³ä»æ’æ¢¦ä¸­å¿ƒ",
        "description": "æ–°æ³¨å†Œä¼šå‘˜é¦–æœˆå³å¯è·èµ 2å¼ 2å°æ—¶åœè½¦ä¼˜æƒ åˆ¸ï¼Œæœ‰æ•ˆæœŸè‡ªæ³¨å†Œæ—¥èµ·90å¤©å†…ã€‚"
      }
    },
    {
      "type": "Feature",
      "geometry": {
        "type": "Point",
        "coordinates": [
          114.248846,
          22.724137
        ]
      },
      "properties": {
        "name": "å•†åœºå…è´¹åœè½¦",
        "address": "æ·±åœ³å®èƒ½allcityé¾™å²—åº—",
        "description": "æ–°æ³¨å†Œå°±æ˜¯é“¶å¡ä¼šå‘˜ï¼Œå½“å¤©é¦–åœäº«3å°æ—¶ä»¥å†…å…è´¹æ—¶é•¿ï¼Œè¿˜å¯å åŠ ç§¯åˆ†ä¼˜æƒ 100åˆ†=5å…ƒåœè½¦è´¹ã€‚"
      }
    },
    {
      "type": "Feature",
      "geometry": {
        "type": "Point",
        "coordinates": [
          114.029187,
          22.646546
        ]
      },
      "properties": {
        "name": "å•†åœºå…è´¹åœè½¦",
        "address": "æ·±åœ³é¾™åå£¹æ–¹å¤©åœ°",
        "description": "æ–°æ³¨å†Œæˆä¸ºå¾®å¡ä¼šå‘˜é€100ç§¯åˆ†ï¼Œå¯å…‘æ¢10å…ƒåœè½¦åˆ¸=2å°æ—¶å…è´¹åœè½¦"
      }
    },
    {
      "type": "Feature",
      "geometry": {
        "type": "Point",
        "coordinates": [
          114.339546,
          22.703163
        ]
      },
      "properties": {
        "name": "å•†åœºå…è´¹åœè½¦",
        "address": "æ·±åœ³åªå±±å¤©è™¹",
        "description": "æ–°æ³¨å†Œå³æˆä¸ºé“¶å¡ä¼šå‘˜ï¼Œå‡­æ¶ˆè´¹æ—¶è¿›è¡Œå¤©è™¹ç§¯åˆ†æ»¡50å…ƒäº«å…è´¹åœè½¦3å°æ—¶ï¼ˆæ¶ˆè´¹ç§¯åˆ†å‰éœ€ç»‘å®šè½¦ç‰Œ)ã€‚"
      }
    },
    {
      "type": "Feature",
      "geometry": {
        "type": "Point",
        "coordinates": [
          113.894188,
          22.775302
        ]
      },
      "properties": {
        "name": "å•†åœºå…è´¹åœè½¦",
        "address": "æ·±åœ³å…‰æ˜å¤§ä»Ÿé‡ŒMAXLAND",
        "description": "æ³¨å†Œå³æˆä¸ºå¾®å¡ä¼šå‘˜ï¼Œå½“æ—¥æ¶ˆè´¹æ»¡99å…ƒå¹¶ç§¯åˆ†å…è´¹åœè½¦2å°æ—¶ã€‚"
      }
    },
    {
      "type": "Feature",
      "geometry": {
        "type": "Point",
        "coordinates": [
          114.308602,
          22.598269
        ]
      },
      "properties": {
        "name": "å•†åœºå…è´¹åœè½¦",
        "address": "æ·±åœ³æ·±åœ³å¤§æ¢…æ²™8å·ä»“",
        "description": "å…è´¹é€300ç§¯åˆ†å…‘æ¢2.5hæˆ–3hå…è´¹åœè½¦åˆ¸ã€‚"
      }
    },
    {
      "type": "Feature",
      "geometry": {
        "type": "Point",
        "coordinates": [
          114.42032,
          22.625056
        ]
      },
      "properties": {
        "name": "å•†åœºå…è´¹åœè½¦",
        "address": "æ·±åœ³æ·±åœ³è‘µæ¶ŒèŠ±ç”Ÿå”è´­ç‰©ä¸­å¿ƒ",
        "description": "ä»»æ„åº—é“ºæ¶ˆè´¹å³å¯åŠç†å…è´¹åœè½¦3å°æ—¶ï¼ˆéº¦å½“åŠ³/å°ç±³ä¹‹å®¶ç­‰ï¼‰"
      }
    }
  ]
}
